{"location_id":"308","candidate_id":"KUM-CAND-001","name":"Lal Kuan Junction railway station","layer":"STATIONS_EN_ROUTEKNOOPPUNTEN","formal_status":null,"lat":29.0665,"lon":79.5195,"geo_status":"WORKING","accuracy":"50_150_M"}
{"location_id":"309","candidate_id":"KUM-CAND-002","name":"Haldwani railway station","layer":"STATIONS_EN_ROUTEKNOOPPUNTEN","formal_status":null,"lat":29.2183,"lon":79.5127,"geo_status":"WORKING","accuracy":"50_150_M"}
{"location_id":"310","candidate_id":"KUM-CAND-003","name":"Kathgodam railway station","layer":"STATIONS_EN_ROUTEKNOOPPUNTEN","formal_status":null,"lat":29.2693,"lon":79.546,"geo_status":"WORKING","accuracy":"50_150_M"}
{"location_id":"400","candidate_id":"KUM-CAND-004","name":"Babaji Cave","layer":"A_FORMEEL","formal_status":"A","lat":29.8334,"lon":79.4654,"geo_status":"WORKING","accuracy":"25_50_M"}
{"location_id":"401","candidate_id":"KUM-CAND-005","name":"Babaji Smriti Bhavan","layer":"A_FORMEEL","formal_status":"A","lat":29.832873,"lon":79.464364,"geo_status":"WORKING","accuracy":"50_150_M"}
{"location_id":"402","candidate_id":"KUM-CAND-006","name":"Dunagiri Temple","layer":"A_FORMEEL","formal_status":"A","lat":29.79672,"lon":79.45123,"geo_status":"WORKING","accuracy":"25_50_M"}
{"location_id":"403","candidate_id":"KUM-CAND-007","name":"YSS Dwarahat Ashram","layer":"A_FORMEEL","formal_status":"A","lat":29.784767,"lon":79.422761,"geo_status":"WORKING","accuracy":"50_150_M"}
{"location_id":"404","candidate_id":"KUM-CAND-008","name":"Kainchi Dham","layer":"A_FORMEEL","formal_status":"A","lat":29.42255,"lon":79.51245,"geo_status":"WORKING","accuracy":"25_50_M"}
{"location_id":"405","candidate_id":"KUM-CAND-009","name":"Kasar Devi Temple","layer":"A_FORMEEL","formal_status":"A","lat":29.64172,"lon":79.66183,"geo_status":"WORKING","accuracy":"25_50_M"}
{"location_id":"406","candidate_id":"KUM-CAND-010","name":"Crank's Ridge","layer":"A_FORMEEL","formal_status":"A","lat":29.648,"lon":79.663,"geo_status":"WORKING","accuracy":"150_500_M"}
{"location_id":"407","candidate_id":"KUM-CAND-011","name":"Kakrighat / Karkateshwar Mahadev","layer":"A_FORMEEL","formal_status":"A","lat":29.54371,"lon":79.53274,"geo_status":"WORKING","accuracy":"150_500_M"}
{"location_id":"408","candidate_id":"KUM-CAND-012","name":"Jageshwar temple complex","layer":"A_FORMEEL","formal_status":"A","lat":29.6375,"lon":79.85428,"geo_status":"WORKING","accuracy":"25_50_M"}
{"location_id":"409","candidate_id":"KUM-CAND-013","name":"Hanuman Garhi, Nainital","layer":"A_FORMEEL","formal_status":"A","lat":29.381,"lon":79.455,"geo_status":"WORKING","accuracy":"50_150_M"}
{"location_id":"410","candidate_id":"KUM-CAND-014","name":"Hotel Evelyn, Nainital","layer":"NOG_DOOR_MARK_TE_BEOORDELEN","formal_status":null,"lat":29.3915,"lon":79.4575,"geo_status":"WORKING","accuracy":"150_500_M"}
{"location_id":"411","candidate_id":"KUM-CAND-015","name":"K. K. Sah house, Nainital","layer":"NOG_DOOR_MARK_TE_BEOORDELEN","formal_status":null,"lat":29.3925,"lon":79.4545,"geo_status":"WORKING","accuracy":"NOT_ESTABLISHED"}
{"location_id":"412","candidate_id":"KUM-CAND-016","name":"Bhumiyadhar temple grounds","layer":"A_FORMEEL","formal_status":"A","lat":29.411,"lon":79.509,"geo_status":"WORKING","accuracy":"150_500_M"}
{"location_id":"413","candidate_id":"KUM-CAND-017","name":"Ramakrishna Kutir, Almora","layer":"A_FORMEEL","formal_status":"A","lat":29.597,"lon":79.655,"geo_status":"WORKING","accuracy":"150_500_M"}
{"location_id":"414","candidate_id":"KUM-CAND-018","name":"Chitai Golu Devta Temple","layer":"A_FORMEEL","formal_status":"A","lat":29.642,"lon":79.714,"geo_status":"WORKING","accuracy":"50_150_M"}
{"location_id":"415","candidate_id":"KUM-CAND-019","name":"Mirtola / Uttar Vrindavan Ashram","layer":"C_FORMEEL","formal_status":"C","lat":29.663,"lon":79.787,"geo_status":"WORKING","accuracy":"150_500_M"}
{"location_id":"416","candidate_id":"KUM-CAND-020","name":"Binsar Wildlife Sanctuary","layer":"C_FORMEEL","formal_status":"C","lat":29.6667,"lon":79.75,"geo_status":"WORKING","accuracy":"150_500_M"}
{"location_id":"417","candidate_id":"KUM-CAND-021","name":"Patal Bhuvaneshwar","layer":"C_FORMEEL","formal_status":"C","lat":29.691,"lon":80.091,"geo_status":"WORKING","accuracy":"150_500_M"}
{"location_id":"418","candidate_id":"KUM-CAND-022","name":"Naina Devi Temple, Nainital","layer":"NOG_DOOR_MARK_TE_BEOORDELEN","formal_status":null,"lat":29.3972,"lon":79.4468,"geo_status":"WORKING","accuracy":"50_150_M"}
{"location_id":"419","candidate_id":"KUM-CAND-023","name":"Lala Badri Shah House, Almora","layer":"NOG_DOOR_MARK_TE_BEOORDELEN","formal_status":null,"lat":29.6,"lon":79.656,"geo_status":"WORKING","accuracy":"150_500_M"}
{"location_id":"420","candidate_id":"KUM-CAND-024","name":"Turiya Niwas, Crank's Ridge","layer":"A_FORMEEL","formal_status":"A","lat":29.654,"lon":79.669,"geo_status":"WORKING","accuracy":"150_500_M"}
{"location_id":"421","candidate_id":"KUM-CAND-025","name":"Bodh Ashram, Kasar Devi area","layer":"A_FORMEEL","formal_status":"A","lat":29.643,"lon":79.675,"geo_status":"WORKING","accuracy":"NOT_ESTABLISHED"}
{"location_id":"422","candidate_id":"KUM-CAND-026","name":"Anandamayi Ma Ashram, Dhaulchina","layer":"C_FORMEEL","formal_status":"C","lat":29.743,"lon":79.632,"geo_status":"WORKING","accuracy":"150_500_M"}
{"location_id":"423","candidate_id":"KUM-CAND-027","name":"Haidakhan Vishwa Mahadham","layer":"A_FORMEEL","formal_status":"A","lat":29.119,"lon":79.701,"geo_status":"WORKING","accuracy":"150_500_M"}
{"location_id":"424","candidate_id":"KUM-CAND-028","name":"Ghorakhal Golu Devta Temple","layer":"B_FORMEEL","formal_status":"B","lat":29.37953,"lon":79.54545,"geo_status":"WORKING","accuracy":"25_50_M"}
{"location_id":"425","candidate_id":"KUM-CAND-029","name":"Anandamayi Ma Ashram / Patal Devi","layer":"NOG_DOOR_MARK_TE_BEOORDELEN","formal_status":null,"lat":29.61,"lon":79.661,"geo_status":"WORKING","accuracy":"150_500_M"}
{"location_id":"426","candidate_id":"KUM-CAND-030","name":"Vivekananda meditation cave near Kasar Devi","layer":"NOG_DOOR_MARK_TE_BEOORDELEN","formal_status":null,"lat":29.6425,"lon":79.6625,"geo_status":"WORKING","accuracy":"NOT_ESTABLISHED"}
{"location_id":"427","candidate_id":"KUM-CAND-031","name":"Bhowali practical base area","layer":"MOGELIJKE_BASES_EN_OVERNACHTING","formal_status":null,"lat":29.389,"lon":79.52,"geo_status":"WORKING","accuracy":"150_500_M"}
{"location_id":"428","candidate_id":"KUM-CAND-032","name":"Nainital practical base area","layer":"MOGELIJKE_BASES_EN_OVERNACHTING","formal_status":null,"lat":29.3905,"lon":79.4609,"geo_status":"WORKING","accuracy":"150_500_M"}
{"location_id":"429","candidate_id":"KUM-CAND-033","name":"Kainchi practical base area","layer":"MOGELIJKE_BASES_EN_OVERNACHTING","formal_status":null,"lat":29.4235,"lon":79.512,"geo_status":"WORKING","accuracy":"150_500_M"}
{"location_id":"430","candidate_id":"KUM-CAND-034","name":"Kathgodam practical base area","layer":"MOGELIJKE_BASES_EN_OVERNACHTING","formal_status":null,"lat":29.27,"lon":79.545,"geo_status":"WORKING","accuracy":"150_500_M"}
{"location_id":"431","candidate_id":"KUM-CAND-035","name":"Haldwani practical base area","layer":"MOGELIJKE_BASES_EN_OVERNACHTING","formal_status":null,"lat":29.218,"lon":79.512,"geo_status":"WORKING","accuracy":"150_500_M"}
{"location_id":"432","candidate_id":"KUM-CAND-036","name":"Advaita Ashrama, Mayavati","layer":"NOG_DOOR_MARK_TE_BEOORDELEN","formal_status":null,"lat":29.37417,"lon":80.06333,"geo_status":"WORKING","accuracy":"150_500_M"}
{"location_id":"433","candidate_id":"KUM-CAND-037","name":"Vivekananda Ashrama, Shyamla Tal","layer":"NOG_DOOR_MARK_TE_BEOORDELEN","formal_status":null,"lat":29.1595,"lon":80.1218,"geo_status":"WORKING","accuracy":"500_1000_M"}
{"location_id":"434","candidate_id":"KUM-CAND-038","name":"Anandapuri Ashram, Chiliyanaula","layer":"NOG_DOOR_MARK_TE_BEOORDELEN","formal_status":null,"lat":29.66236,"lon":79.41309,"geo_status":"WORKING","accuracy":"25_50_M"}
{"location_id":"435","candidate_id":"KUM-CAND-039","name":"Kukuchina / Babaji Cave trail approach","layer":"STATIONS_EN_ROUTEKNOOPPUNTEN","formal_status":null,"lat":29.8315,"lon":79.463,"geo_status":"WORKING","accuracy":"150_500_M"}
{"location_id":"436","candidate_id":"KUM-CAND-040","name":"Dwarahat practical base area","layer":"MOGELIJKE_BASES_EN_OVERNACHTING","formal_status":null,"lat":29.777,"lon":79.427,"geo_status":"WORKING","accuracy":"500_1000_M"}
{"location_id":"437","candidate_id":"KUM-CAND-041","name":"Almora practical base area","layer":"MOGELIJKE_BASES_EN_OVERNACHTING","formal_status":null,"lat":29.5971,"lon":79.6591,"geo_status":"WORKING","accuracy":"150_500_M"}
{"location_id":"438","candidate_id":"KUM-CAND-042","name":"Kasar Devi practical base area","layer":"MOGELIJKE_BASES_EN_OVERNACHTING","formal_status":null,"lat":29.65087,"lon":79.66492,"geo_status":"WORKING","accuracy":"150_500_M"}
{"location_id":"439","candidate_id":"KUM-CAND-043","name":"Ranikhet / Chiliyanaula practical base area","layer":"MOGELIJKE_BASES_EN_OVERNACHTING","formal_status":null,"lat":29.65,"lon":79.42,"geo_status":"WORKING","accuracy":"500_1000_M"}
{"location_id":"440","candidate_id":"KUM-CAND-044","name":"Vivekananda Rest House / Vivekananda Shila, Karbala","layer":"NOG_DOOR_MARK_TE_BEOORDELEN","formal_status":null,"lat":29.599,"lon":79.65,"geo_status":"WORKING","accuracy":"500_1000_M"}
{"location_id":"441","candidate_id":"KUM-CAND-045","name":"Thompson House / ITI, Almora","layer":"NOG_DOOR_MARK_TE_BEOORDELEN","formal_status":null,"lat":29.596,"lon":79.651,"geo_status":"WORKING","accuracy":"500_1000_M"}
{"location_id":"442","candidate_id":"KUM-CAND-046","name":"Sri Raghunath Temple reception site, Almora","layer":"NOG_DOOR_MARK_TE_BEOORDELEN","formal_status":null,"lat":29.6005,"lon":79.657,"geo_status":"WORKING","accuracy":"500_1000_M"}
{"location_id":"443","candidate_id":"KUM-CAND-047","name":"Bright End Corner / Vivekananda Corner, Almora","layer":"CONTEXT_OF_AFGEVALLEN","formal_status":null,"lat":29.5975,"lon":79.6545,"geo_status":"WORKING","accuracy":"500_1000_M"}
END_OF_ARTIFACT
